@id	@lon	@lat	name
20832630	15.4182425	47.0583729	Don Bosco Bahnhof
20911104	15.4526367	47.0593698	Moserhofgasse
21140812	15.4560215	47.0701897	Herz-Jesu-Kirche
21141095	15.4586986	47.0692614	Schillerplatz
21413815	15.4638534	47.0777930	Odilien-Institut
21413849	15.4506355	47.0677056	Mandellstraße
27485829	15.4274682	47.0904464	Robert-Stolz-Gasse
27496017	15.4585606	47.0612327	St. Peter Friedhof
27496019	15.4508604	47.0635565	Neue Technik
27496021	15.4425893	47.0674802	Jakominiplatz
27496023	15.4342766	47.0708803	Südtiroler Platz/Kunsthaus
27496473	15.4345482	47.0773649	Keplerbrücke
27678736	15.4738808	47.0982276	Rettenbach
35124921	15.4640875	47.0408093	Liebenau Murpark
35124930	15.4628555	47.0424434	P+R Murpark
35124994	15.4624094	47.0445597	Karl-Huber-Gasse
35131948	15.4591454	47.0468211	Dr.-Lister-Gasse
35131992	15.4536388	47.0477993	Stadion Liebenau
35134581	15.4534498	47.0477114	Stadion Liebenau
35134593	15.4510383	47.0509088	Jauerburggasse
35135006	15.4472029	47.0560891	Fröhlichgasse/Messe
35213275	15.4464612	47.0574161	Stadthalle
35213843	15.4445328	47.0609176	Steyrergasse
35214364	15.4434652	47.0628768	Finanzamt
35248974	15.4588882	47.0468583	Dr.-Lister-Gasse
35668970	15.4288859	47.0303543	Puntigam Bahnhof
35668985	15.4318472	47.0311588	Brauhaus Puntigam
86096405	15.4784915	47.0997055	Waldhof
86096406	15.4875320	47.1030098	Tannhof
89461343	15.3961493	47.0690974	Absengerstraße
89461345	15.3958916	47.0691290	Absengerstraße
224426845	15.4760848	47.0989999	Wagnesweg
224426899	15.4842332	47.1014696	Teichhof
224426955	15.4890206	47.1052462	Mariatrost
224426987	15.4696800	47.0967570	St. Johann
224443997	15.4579842	47.0790362	Lenaugasse
224487120	15.4583774	47.0752076	Reiterkaserne
224487185	15.4503624	47.0720949	Lichtenfelsgasse/Kunstuniversität
255890220	15.4296083	47.0414015	Plachelhofstraße
263294584	15.3965383	47.0790583	Eggenberg/UKH
263297988	15.3926904	47.0606055	Wetzelsdorf
263494159	15.4218070	47.1027474	Andritz
263494322	15.4231605	47.0938750	Maut Andritz
263847234	15.4305622	47.0376133	Maut Puntigam
263847743	15.4300596	47.0454103	Zentralfriedhof
263871426	15.4600174	47.0682192	Krenngasse
264387912	15.4312267	47.0850703	Seniorenzentrum
265182287	15.4030124	47.0665278	Seidenhofstraße
265182289	15.4029567	47.0657275	Seidenhofstraße
265182292	15.4027896	47.0675439	Eckertstraße
265182313	15.4032729	47.0633077	Reininghausstraße
265182315	15.4031036	47.0634895	Reininghausstraße
265182318	15.4031942	47.0600970	Wetzelsdorfer Straße
265182321	15.4033363	47.0597413	Wetzelsdorfer Straße
265614336	15.4114242	47.0544745	Sterzinggasse
265614355	15.4065856	47.0530760	Grazerfeldstraße
265614356	15.4068930	47.0530348	Grazerfeldstraße
266012388	15.4677391	47.0793190	St. Leonhard/LKH
266332009	15.4150103	47.0535850	Don Bosco/Harter Straße
266333514	15.4096943	47.0482915	Evangelischer Friedhof
270203828	15.3924520	47.0605629	Wetzelsdorf
270204111	15.3958054	47.0585549	Josef-Kienzl-Weg
270204570	15.3922641	47.0595381	Wetzelsdorf
270204571	15.3927271	47.0597180	Wetzelsdorf
270613005	15.4060823	47.0701114	Fachhochschule Joanneum
274088293	15.4804854	47.0586458	St. Peter
277703374	15.4015385	47.0687421	Karl-Morre-Straße
280171726	15.4387649	47.0664891	Wielandgasse
280171742	15.4379476	47.0665041	Wielandgasse-West
280171823	15.4373566	47.0663350	Wielandgasse
280406464	15.4328590	47.1151332	Popelkaring
280450797	15.4370960	47.0656480	Gebietskrankenkasse
280450830	15.4376914	47.0644824	Grazbachgasse
282464958	15.4478269	47.0709585	Maiffredygasse
283393968	15.4642296	47.0602253	Schulzentrum St. Peter
285853067	15.4005891	47.1051050	Shopping-Nord
287013931	15.4417832	47.0674634	Jakominiplatz
287013932	15.4425705	47.0673065	Jakominiplatz
287026786	15.3967209	47.0751593	Schloss Eggenberg
287103040	15.4460717	47.0468013	Willi-Thaller-Straße
287103041	15.4457679	47.0447769	Theyergasse
287323331	15.4377663	47.0662047	Wielandgasse-Süd
287323332	15.4376213	47.0662000	Wielandgasse-Süd
287323333	15.4378380	47.0640550	Grazbachgasse
287323334	15.4379365	47.0617060	Museum der Wahrnehmung
287323335	15.4375736	47.0612631	Museum der Wahrnehmung
287323336	15.4367922	47.0600409	Augarten
287323337	15.4367867	47.0597090	Augarten
287323338	15.4374262	47.0582072	Neuholdaugasse/Augartenbad
287323339	15.4373344	47.0581749	Neuholdaugasse/Augartenbad
287323340	15.4387432	47.0552664	Fliedergasse
287323341	15.4385423	47.0552286	Fliedergasse
287323342	15.4403329	47.0529946	Seifenfabrik
287323343	15.4408288	47.0527933	Seifenfabrik
287323344	15.4436012	47.0528040	Kirchner-Kaserne
287323345	15.4434481	47.0527464	Kirchner-Kaserne
287323346	15.4453521	47.0507631	Schönaupark
287323347	15.4454153	47.0504684	Schönaupark
287323351	15.4480555	47.0473579	Dr.-Plochl-Straße
287323352	15.4487808	47.0461950	Neusiedlergasse
287323353	15.4488686	47.0456566	Neusiedlergasse
287323354	15.4486787	47.0445479	Hauptschule Dr. Renner
287323355	15.4469403	47.0432443	Andersengasse
287323357	15.4410532	47.0555103	Hüttenbrennergasse
287323359	15.4406693	47.0585957	Josefkirche
287323360	15.4401472	47.0610068	Brockmannschule
287323361	15.4403764	47.0605614	Brockmann-Schule
287330501	15.4170214	47.0735195	Hauptbahnhof
287330504	15.4180188	47.0727079	Hauptbahnhof
287330514	15.4208757	47.0736936	Babenbergerstraße
287330515	15.4200865	47.0741494	Babenbergerstraße
287330516	15.4201384	47.0734190	Babenbergerstraße
287330517	15.4236611	47.0743283	Marienplatz
287330518	15.4228770	47.0742499	Marienplatz
287330519	15.4229303	47.0747370	Marienplatz
287330520	15.4291362	47.0762274	Lendplatz
287330521	15.4287574	47.0759720	Lendplatz
287330522	15.4291515	47.0759135	Lendplatz
287330523	15.4294199	47.0763854	Lendplatz
287330524	15.4342589	47.0776494	Keplerbrücke
287330525	15.4350381	47.0777749	Keplerbrücke
287330526	15.4395143	47.0791897	Grabenstraße
287330527	15.4395962	47.0790906	Grabenstraße
287330528	15.4422957	47.0792679	Wormgasse
287330529	15.4420537	47.0797974	Wormgasse
287330530	15.4432564	47.0780586	Geidorfplatz
287330531	15.4439138	47.0779139	Geidorfplatz
287330532	15.4433801	47.0782224	Geidorfplatz
287330533	15.4477124	47.0788623	Mozartgasse
287330534	15.4480309	47.0790813	Mozartgasse
287330535	15.4513562	47.0806416	Liebiggasse
287330536	15.4509996	47.0805913	Liebiggasse
287330537	15.4543117	47.0817147	Rosenhaingasse
287330538	15.4543284	47.0819088	Rosenhaingasse
287330539	15.4566767	47.0845020	Panoramagasse
287330540	15.4564573	47.0846518	Panoramagasse
287330541	15.4578497	47.0874329	Pensionsweg
287330542	15.4580771	47.0875346	Pensionsweg
287330543	15.4599928	47.0895261	Mariagrün
287354767	15.4360898	47.0655635	Gebietskrankenkasse
287354768	15.4357097	47.0660905	Gebietskrankenkasse
287354769	15.4461265	47.0686594	Kaiser-Josef-Platz/Oper
287354770	15.4467335	47.0690961	Kaiser-Josef-Platz/Oper
287354771	15.4458339	47.0685045	Kaiser-Josef-Platz/Oper
287354772	15.4443185	47.0704093	Tummelplatz
287354773	15.4441873	47.0703369	Tummelplatz
287354774	15.4424351	47.0707783	Palais Trauttmansdorff/Urania
287354775	15.4412351	47.0725457	Schauspielhaus
287354776	15.4411448	47.0725503	Schauspielhaus
287354777	15.4400330	47.0741582	Karmeliterplatz
287354778	15.4399018	47.0740467	Karmeliterplatz
287354779	15.4418729	47.0766946	Paulustor
287354780	15.4413821	47.0765750	Paulustor
287354781	15.4476483	47.0815625	Rosenberg
287354782	15.4466366	47.0823997	Geidorf
287354783	15.4448340	47.0801948	Goethestraße
287354784	15.4448061	47.0802979	Goethestraße
287363755	15.4397637	47.0876438	Wirtschaftskammer
287363761	15.4427568	47.0852570	Richard-Wagner-Gasse
287363768	15.4427812	47.0853974	Richard-Wagner-Gasse
287363769	15.4414503	47.0833149	Grillparzerstraße
287363771	15.4431629	47.0806046	Franckstraße/Margarethenbad
287363780	15.4442964	47.0838416	Kreuzgasse
287363787	15.4463985	47.0747386	Zinzendorfgasse
287363797	15.4459682	47.0749047	Zinzendorfgasse
287363798	15.4476405	47.0708162	Maiffredygasse
287363800	15.4417295	47.0667444	Jakominiplatz
287363802	15.4416870	47.0668014	Jakominiplatz
287363810	15.4416267	47.0669451	Jakominiplatz
287363812	15.4416094	47.0670112	Jakominiplatz
287363814	15.4426243	47.0672870	Jakominiplatz
287363815	15.4422120	47.0672176	Jakominiplatz
287363819	15.4418239	47.0672479	Jakominiplatz
287363820	15.4418291	47.0674579	Jakominiplatz
287363823	15.4422213	47.0675335	Jakominiplatz
287363824	15.4426062	47.0674453	Jakominiplatz
287363826	15.4402632	47.0665426	Jakominiplatz
287363827	15.4433385	47.0674849	Jakominiplatz
287363829	15.4432896	47.0673780	Jakominiplatz
287363830	15.4424886	47.0682560	Opernring
287363834	15.4315816	47.0668957	Griesplatz
287363836	15.4314395	47.0661568	Griesplatz
287363839	15.4315390	47.0644550	Griesplatz/Zweiglgasse
287363841	15.4263037	47.0664459	Elisabethinergasse
287363842	15.4272244	47.0669295	Elisabethinergasse
287363844	15.4269585	47.0667613	Elisabethinergasse
287363846	15.4266977	47.0661871	Elisabethinergasse
287363848	15.4249165	47.0639540	Lissagasse
287363849	15.4243117	47.0635237	Lissagasse
287363851	15.4236119	47.0627710	Gürtelturmplatz
287363852	15.4232854	47.0634315	Gürtelturmplatz
287363854	15.4193241	47.0586950	Don Bosco Bahnhof
287363855	15.4192002	47.0587311	Don Bosco Bahnhof
287363857	15.4199274	47.0588899	Don Bosco Bahnhof
287363859	15.4174351	47.0565294	Kirche Don Bosco
287363861	15.4170708	47.0565532	Kirche Don Bosco
287363862	15.4124410	47.0547110	Sterzinggasse
287363864	15.4030831	47.0521309	Wachtelgasse
287363865	15.4031208	47.0520452	Wachtelgasse
287375031	15.3980014	47.0507764	Abstallerstraße
287375033	15.3978711	47.0508560	Abstallerstraße
287375034	15.3957608	47.0506686	Peter-Rosegger-Straße
287375036	15.3948864	47.0509433	Peter-Rosegger-Straße
287375037	15.3946866	47.0513752	Peter-Rosegger-Straße
287375038	15.3946288	47.0501073	Peter-Rosegger-Straße
287375039	15.3947464	47.0462902	Grottenhofstraße
287375040	15.3956276	47.0466480	Grottenhofstraße
287375042	15.3940412	47.0467059	Grottenhofstraße
287375043	15.3949795	47.0469333	Grottenhofstraße
287375044	15.3958239	47.0429479	Gablenzkaserne
287375046	15.3956290	47.0426040	Gablenzkaserne
287375047	15.3963838	47.0400004	Zweierbosniakengasse
287375048	15.3962365	47.0397184	Zweierbosniakengasse
287375049	15.3969756	47.0374497	Ankerstraße
287375050	15.3971453	47.0375102	Ankerstraße
287375051	15.3986374	47.0351288	Harter Straße
287375052	15.3985636	47.0354990	Harter Straße
287375053	15.3994930	47.0329791	Stregengasse
287375054	15.3994187	47.0325212	Stregengasse
287375055	15.4010508	47.0288470	Webling
287375056	15.4011532	47.0296691	Webling
287375057	15.4424846	47.0796396	Wormgasse
287832511	15.4166438	47.0554372	Don Bosco-Süd
287832667	15.4160017	47.0504929	Glaserweg
287832785	15.4159153	47.0511558	Glaserweg
287832863	15.4150619	47.0469281	Niclas-Strobl-Weg
287832867	15.4153871	47.0472152	Niclas-Strobl-Weg
287833128	15.4144435	47.0438477	Kapellenwirt
287833130	15.4140231	47.0431942	Kapellenwirt
287833208	15.4134749	47.0410926	Wagner-Jauregg-Straße
287833256	15.4127885	47.0403245	Wagner-Jauregg-Straße
287833260	15.4137292	47.0403787	Wagner-Jauregg-Straße
287833267	15.4140635	47.0402520	Wagner-Jauregg-Straße
287833386	15.4102366	47.0353713	Trattfelderstraße
287833404	15.4094709	47.0349535	Trattfelderstraße
287833437	15.4046629	47.0306434	Schwarzer Weg
287834133	15.4043767	47.0306426	Schwarzer Weg
287834140	15.4026617	47.0289641	Sattlerweg
287834145	15.4020684	47.0286912	Sattlerweg
287834190	15.4008950	47.0252137	Bad Straßgang
287834193	15.4007160	47.0255418	Bad Straßgang
287834315	15.4002164	47.0228015	Straßgang-Zentrum
287834329	15.4004848	47.0234622	Straßgang-Zentrum
287843613	15.4153266	47.0537247	Don Bosco/Harter Straße
287843775	15.4093367	47.0477740	Evangelischer Friedhof
287843892	15.4065207	47.0467626	Klusemannstraße
287843894	15.4070779	47.0466634	Klusemannstraße
287844381	15.4017472	47.0466602	Karl-Etzel-Weg
287844442	15.4023228	47.0467820	Karl-Etzel-Weg
287844646	15.3892725	47.0465952	Grottenhof
287844648	15.3885892	47.0466844	Grottenhof
287844753	15.3954619	47.0567588	Schreinerstraße
287844780	15.3951869	47.0558347	Schreinerstraße
287844898	15.3954246	47.0577618	Josef-Kienzl-Weg
287844941	15.3922924	47.0605942	Wetzelsdorf
287844950	15.3956404	47.0604623	Burgenlandstraße
287845017	15.4002518	47.0596851	Steinäckerstraße
287845214	15.3996736	47.0597670	Steinäckerstraße
287845773	15.4019121	47.0700321	Franz-Steiner-Gasse
287845886	15.4027966	47.0705885	Franz-Steiner-Gasse
287845926	15.4020319	47.0709308	Franz-Steiner-Gasse
287845967	15.4032487	47.0697738	Eggenberger Allee
287948211	15.4708353	47.0187508	Thondorf
287948212	15.4717291	47.0197932	Werk Thondorf
287948213	15.4720712	47.0196222	Werk Thondorf
287948214	15.4694172	47.0226912	Grabenwirt
287948215	15.4691749	47.0220537	Grabenwirt
287948216	15.4695376	47.0222918	Grabenwirt
287948217	15.4693578	47.0229698	Grabenwirt
287948219	15.4657510	47.0207938	Schule Murfeld
287948220	15.4650197	47.0206057	Schule Murfeld
287948221	15.4612960	47.0191858	Neudorfer Straße
287948222	15.4608980	47.0192306	Neudorfer Straße
287948223	15.4584280	47.0238170	Hortgasse
287948224	15.4581312	47.0241097	Hortgasse
287948226	15.4550630	47.0279795	Dorfstraße
287948228	15.4558200	47.0304800	Rainweg
287948229	15.4537585	47.0347888	Hutteggerstraße
287948230	15.4540377	47.0342936	Hutteggerstraße
287948231	15.4538142	47.0385427	Puntigamer Straße
287948232	15.4548869	47.0379613	Puntigamer Straße
287948233	15.4537367	47.0381540	Puntigamer Straße
287964964	15.3993826	47.0187827	Straßgang-Süd
287964969	15.3986663	47.0175844	Straßgang-Süd
287976719	15.4126307	47.0510139	Pulverturmstraße
287976720	15.4121369	47.0505768	Pulverturmstraße
287976721	15.3990396	47.0466633	Grevenberggasse
287976722	15.3990457	47.0467658	Grevenberggasse
287976723	15.3876579	47.0481240	Neupauerweg
287976724	15.3877686	47.0481115	Neupauerweg
287976725	15.3909731	47.0502396	Steiermarkhof
287976730	15.3908860	47.0503380	Steiermarkhof
287976754	15.4280526	47.0603904	Citypark
288379419	15.4924781	47.0360059	Kreisverkehr
288379422	15.4886670	47.0410488	Köglerweg
288379423	15.4884246	47.0405096	Köglerweg
288379425	15.4854002	47.0327444	Tiefentalweg
288379435	15.4857827	47.0455895	Messendorf-Heimgarten
288379436	15.4861120	47.0455893	Messendorf-Heimgarten
288379437	15.4827841	47.0483020	Sternäckerweg
288379438	15.4826109	47.0486909	Sternäckerweg
288379439	15.4800375	47.0499676	Hubertusstraße
288379440	15.4798577	47.0502533	Hubertusstraße
288379441	15.4768407	47.0522739	Artur-Michl-Gasse
288379442	15.4770183	47.0519094	Artur-Michl-Gasse
288379443	15.4743586	47.0543225	Petrifelderstraße
288379444	15.4741114	47.0542574	Petrifelderstraße
288379445	15.4717930	47.0568479	Petersbergenstraße
288379447	15.4720761	47.0568801	Petersbergenstraße
288379448	15.4704509	47.0583360	Terrassenhaussiedlung
288379449	15.4706321	47.0584028	Terrassenhaussiedlung
288379450	15.4679920	47.0595822	Morrehof
288379451	15.4675934	47.0594705	Morrehof
288379454	15.4817374	47.0251632	Walter-P.-Chrysler-Platz
288385343	15.4217727	47.0467067	Urnenfriedhof
288385344	15.4212602	47.0477897	Feuerhalle
288385351	15.4264882	47.0514014	Vinzenz-Muchitsch-Straße
288385353	15.4273731	47.0550223	Feldgasse
288385354	15.4280482	47.0523912	Auf der Tändelwiese
288385359	15.4283776	47.0522355	Auf der Tändelwiese
288385378	15.4303479	47.0576672	Karlauplatz
288385379	15.4305336	47.0575991	Karlauplatz
288385381	15.4309160	47.0602736	Karlauer Kirche
288385382	15.4306424	47.0604756	Karlauer Kirche
288385383	15.4307495	47.0621172	Albert-Schweitzer-Gasse
288385384	15.4309697	47.0625136	Albert-Schweitzer-Gasse
288385386	15.4507812	47.0763940	Uni/Mensa
288385387	15.4508400	47.0761187	Uni/Mensa
288385388	15.4534883	47.0783430	Schubertstraße
288385389	15.4516721	47.0784761	Uni/ReSoWi
288385390	15.4504474	47.0746228	Uni/Beethovenstraße
288385391	15.4518360	47.0748969	Uni/Beethovenstraße
288698709	15.4289103	47.0714445	Roseggerhaus
288698710	15.4287064	47.0714615	Roseggerhaus
288698713	15.4284431	47.0710417	Roseggerhaus
288698715	15.4281732	47.0711312	Roseggerhaus
288698718	15.4275666	47.0786821	Zeillergasse
288698720	15.4276292	47.0784523	Zeillergasse
288698721	15.4256788	47.0797112	Am Damm
288698722	15.4243707	47.0798978	Am Damm
288698723	15.4213906	47.0819861	Bienengasse
288698724	15.4215914	47.0814828	Bienengasse
288698726	15.4189557	47.0840316	Fröbelpark
288698727	15.4192023	47.0836648	Fröbelpark
288698728	15.4167124	47.0842223	Kalvariengürtel
288698729	15.4162770	47.0826483	Kalvariengürtel
288698730	15.4162823	47.0837170	Kalvariengürtel
288698732	15.4158044	47.0826833	Kalvariengürtel
288698733	15.4093106	47.0902019	Josef-Pock-Straße
288698735	15.4088501	47.0902249	Josef-Pock-Straße
288698742	15.4106616	47.0889500	Viktor-Franz-Straße
288698743	15.4112210	47.0880594	Viktor-Franz-Straße
288698745	15.4059334	47.0938962	HTL Bulme
288698747	15.4056456	47.0937368	HTL Bulme
288698748	15.4039753	47.0958888	Exerzierplatzstraße
288698750	15.4039239	47.0968769	Exerzierplatzstraße
288698751	15.4043756	47.0965592	Exerzierplatzstraße
288698752	15.3996089	47.0975363	Volksschule Gösting
288698754	15.3990780	47.0978149	Volksschule Gösting
288715940	15.4422709	47.1246123	Dürrgrabenweg
288715943	15.4387318	47.1208558	Kaufhaus Maxa
288715944	15.4385893	47.1208998	Kaufhaus Maxa
288715945	15.4355390	47.1186844	Neustift
288715946	15.4359105	47.1190121	Neustift
288715947	15.4327314	47.1151927	Popelkaring
288715948	15.4316126	47.1115422	Rotmoosweg
288715949	15.4309010	47.1111150	Rotmoosweg
288715950	15.4274411	47.1080999	Gasthaus Heimkehrer
288715951	15.4276333	47.1081010	Gasthaus Heimkehrer
288715953	15.4262357	47.1038927	Nordberggasse
288715954	15.4259776	47.1033800	Nordberggasse
288715955	15.4249267	47.1023215	Stukitzbad
288715956	15.4248417	47.1021981	Stukitzbad
288715962	15.4218407	47.1031397	Andritz
288715963	15.4215938	47.1030137	Andritz
288715964	15.4191232	47.1007093	Papierfabrikgasse
288715965	15.4190154	47.1007603	Papierfabrikgasse
288715966	15.4192842	47.0985398	Gleispachgasse
288715967	15.4190614	47.0981793	Gleispachgasse
288715968	15.4194653	47.0963920	Neugasse
288715979	15.4192979	47.0967422	Neugasse
288715986	15.4227762	47.0929953	Maut Andritz
288715987	15.4221507	47.0934037	Maut Andritz
288715988	15.4238546	47.0917213	Ortweingasse
288715989	15.4237309	47.0920267	Ortweingasse
288769773	15.4256002	47.0897920	Kettengasse
288769774	15.4255301	47.0902381	Kettengasse
288769775	15.4282290	47.0869360	Carnerigasse-West
288769777	15.4295200	47.0873664	Carnerigasse
288769778	15.4290382	47.0870771	Carnerigasse
288769779	15.4302732	47.0853619	Seniorenzentrum
288769780	15.4311667	47.0850568	Seniorenzentrum
288769781	15.4314806	47.0848512	Seniorenzentrum
288769782	15.4339053	47.0857832	Heinrich-Casper-Gasse
288769783	15.4338022	47.0858408	Heinrich-Casper-Gasse
288769784	15.4366070	47.0863170	Wifi
288769785	15.4378319	47.0850569	Wifi
288769786	15.4383029	47.0816133	Grabenkirche
288769787	15.4406196	47.0815764	Grabenkirche
288769788	15.4469009	47.0774433	Attemsgasse
288769789	15.4467695	47.0778696	Attemsgasse
288769790	15.4490517	47.0772141	Universität
288769791	15.4493516	47.0770544	Universität
288769792	15.4592247	47.0769540	Tegetthoffplatz
288769793	15.4576799	47.0766474	Tegetthoffplatz
288769794	15.4577677	47.0768059	Tegetthoffplatz
288769795	15.4581273	47.0764993	Tegetthoffplatz
288769796	15.4632667	47.0780911	Studentenheim Elisabeth
288769806	15.4679778	47.0793016	St. Leonhard/LKH
288769807	15.4680323	47.0790552	St. Leonhard/LKH
288769808	15.4673545	47.0791729	St. Leonhard/LKH
289078214	15.4203845	47.0681994	Steinfeldfriedhof
289078412	15.4202570	47.0676435	Steinfeldfriedhof
289078715	15.4218228	47.0642604	St. Lukas
289079139	15.4257579	47.0601602	Hohenstaufengasse
289079178	15.4251333	47.0606396	Hohenstaufengasse
289079350	15.4269105	47.0576370	Lazarettgürtel
289079402	15.4265079	47.0578485	Lazarettgürtel
289079636	15.4287673	47.0493022	Pfarrzentrum St. Johannes
289079663	15.4290700	47.0492063	Pfarrzentrum St. Johannes
289079696	15.4301948	47.0457551	Zentralfriedhof
289079711	15.4299764	47.0453991	Zentralfriedhof
289079876	15.4292531	47.0452973	Zentralfriedhof
289079882	15.4294060	47.0451920	Zentralfriedhof
289160323	15.4174814	47.0760978	Zollgasse
289160324	15.4192258	47.0765746	Zollgasse
289160326	15.4158423	47.0799679	Lastenstraße
289160328	15.4174137	47.0802864	Lastenstraße
289160331	15.4015487	47.1039801	Shopping-Nord
289160332	15.4027716	47.1084586	Weinzödlbrücke
289160334	15.4023983	47.1082368	Weinzödlbrücke
289160336	15.4143364	47.1038057	Am Andritzbach
289160337	15.4141963	47.1044533	Am Andritzbach
289160339	15.4168394	47.0996846	Am Arlandgrund
289160340	15.4170814	47.0997503	Am Arlandgrund
289160342	15.4273331	47.1009657	Eichenhaingasse
289160343	15.4281360	47.1009329	Eichenhaingasse
289160345	15.4309655	47.1009143	Viktor-Zack-Weg
289160435	15.4362750	47.1016218	Ziegelstraße
289916836	15.4535360	47.0739900	Merangasse
289917144	15.4577132	47.0708586	Nibelungengasse
289917269	15.4580079	47.0708349	Nibelungengasse
289917313	15.4591651	47.0694000	Schillerplatz
289917321	15.4603297	47.0684414	Schillerplatz
289917322	15.4596323	47.0692486	Schillerplatz
289917351	15.4595646	47.0693343	Schillerplatz
289917377	15.4601073	47.0682269	Krenngasse
289917503	15.4619756	47.0674550	Ruckerlberggasse
289917635	15.4633136	47.0661465	Schörgelgasse
289917648	15.4650148	47.0649929	Waltendorfer Hauptstraße
289917673	15.4653113	47.0641630	Waltendorfer Hauptstraße
289917801	15.4672946	47.0614700	Hans-Brandstetter-Gasse
289917854	15.4677765	47.0613767	Hans-Brandstetter-Gasse
289918036	15.4688801	47.0605281	Plüddemanngasse
289918120	15.4690585	47.0600134	Plüddemanngasse
289918191	15.4670417	47.0552174	ORF-Zentrum
289918194	15.4667228	47.0554213	ORF-Zentrum
289918218	15.4655642	47.0580525	Marburger Straße
289918219	15.4654801	47.0581345	Marburger Straße
290182660	15.4699368	47.0530958	Hertzgasse
290182666	15.4698154	47.0530758	Hertzgasse
290182673	15.4690362	47.0503091	Paul-Keller-Gasse
290182678	15.4691005	47.0506145	Paul-Keller-Gasse
290182684	15.4660821	47.0474173	Scheigergasse
290182687	15.4656702	47.0470232	Scheigergasse
290182689	15.4644662	47.0452822	Petrifelderstraße/Neufeldweg
290182691	15.4642825	47.0452931	Petrifelderstraße/Neufeldweg
290182693	15.4680227	47.0423205	Banngrabenweg
290182695	15.4679010	47.0422663	Banngrabenweg
290182697	15.4646899	47.0410457	Liebenau Murpark
290182699	15.4645356	47.0409472	Liebenau Murpark
290182700	15.4660543	47.0398918	Ostbahnstraße
290182702	15.4656171	47.0398403	Ostbahnstraße
290182705	15.4602001	47.0392927	Liebenau Postamt
290182708	15.4602198	47.0391333	Liebenau Postamt
290182711	15.4574080	47.0396638	Volksschule Liebenau
290182714	15.4576138	47.0398804	Volksschule Liebenau
290182717	15.4524540	47.0362568	Speidlgasse
290182719	15.4523478	47.0363305	Speidlgasse
290182721	15.4486588	47.0356766	Murfelder Straße
290182722	15.4476726	47.0356090	Murfelder Straße
290182723	15.4430776	47.0332149	Rudersdorfer Straße
290182724	15.4441498	47.0339920	Rudersdorfer Straße
290182726	15.4377684	47.0305853	Gmeinstraße
290182727	15.4388114	47.0314565	Gmeinstraße
290182729	15.4335507	47.0288915	Zentrum Puntigam
290182730	15.4332345	47.0293482	Zentrum Puntigam
290182731	15.4334086	47.0282625	Zentrum Puntigam
290182732	15.4330852	47.0282860	Zentrum Puntigam
290182752	15.4286103	47.0303367	Puntigam Bahnhof
290182753	15.4218516	47.0322095	Ikea
290182754	15.4218942	47.0322845	Ikea
290182756	15.4189845	47.0334504	Center West
290182757	15.4156864	47.0380861	Wagner-Jauregg-Platz
290182758	15.4161829	47.0376650	Wagner-Jauregg-Platz
290182759	15.4083970	47.0402647	Grillweg
290182760	15.4090532	47.0402195	Grillweg
290182761	15.4027042	47.0401652	Glesingerstraße
290182762	15.4034180	47.0399212	Glesingerstraße
290182763	15.3982838	47.0414239	Am Jägergrund
290182764	15.3985893	47.0415342	Am Jägergrund
291331569	15.4068641	47.0965204	Zanklstraße
292476936	15.3742089	47.1113482	Ort
299284027	15.3698519	47.1160937	Oberraach
300896125	15.4365035	47.0691060	Andreas-Hofer-Platz/Joanneumsviertel
300896373	15.4367975	47.0690792	Andreas-Hofer-Platz/Joanneumsviertel
300896809	15.4315278	47.0697465	Bad zur Sonne
300896917	15.4321035	47.0695924	Bad zur Sonne
300897418	15.4287249	47.0717243	Roseggerhaus
300898625	15.4198465	47.0855251	Kalvarienbergstraße
300898626	15.4199068	47.0858071	Kalvarienbergstraße
300898655	15.4202356	47.0863802	Kalvarienbergstraße
300899081	15.4180311	47.0882196	Erlengasse
300899099	15.4180356	47.0881077	Erlengasse
300899550	15.4161131	47.0899326	Kalvarienweg
300899601	15.4162603	47.0899611	Kalvarienweg
300899782	15.4136649	47.0933058	Schippingerstraße
300899787	15.4134946	47.0933189	Schippingerstraße
300900032	15.4124918	47.0959728	Augasse
300900039	15.4121652	47.0960978	Augasse
300900156	15.4094346	47.0979261	Fischeraustraße
300900166	15.4087470	47.0974597	Fischeraustraße
301339419	15.4622989	47.0567012	Brucknerschule
301339462	15.4622376	47.0567939	Brucknerschule
301339865	15.4581102	47.0522080	Neufeldweg
301339871	15.4579955	47.0521421	Neufeldweg
301340054	15.4569454	47.0508546	Harmsdorfgasse
301340081	15.4570053	47.0507542	Harmsdorfgasse
301340095	15.4555115	47.0510262	Harmsdorfgasse
301340144	15.4554411	47.0501020	Harmsdorfgasse
301340433	15.4484320	47.0539124	Ostbahnhof
330262907	15.4362202	47.0727943	Schloßbergplatz/Murinsel
331365624	15.3691620	47.1166035	Oberraach
332035501	15.4468285	47.0432090	Andersengasse
333986603	15.4550010	47.0282340	Dorfstraße
333986858	15.4560709	47.0306080	Rainweg
336225189	15.4513591	47.0993959	Volksschule Mariagrün
336232755	15.5078589	47.0677099	Lustbühel
336250702	15.4510125	47.0760016	Uni/Mensa
336250703	15.4599537	47.0682237	Krenngasse
336250704	15.4647935	47.0645356	Waltendorfer Hauptstraße
336305651	15.4806142	47.0586462	St. Peter
336305652	15.4834487	47.0588191	Peterstalstraße 40
336305653	15.4835886	47.0589429	Peterstalstraße 40
336305657	15.4848390	47.0594214	Peierlhang
336305663	15.4864982	47.0587484	Weiherweg
336305666	15.4865428	47.0588056	Weiherweg
336305668	15.4896064	47.0584945	Toni-Schruf-Weg
336305673	15.4896228	47.0585625	Toni-Schruf-Weg
336305676	15.4928981	47.0591690	Einödhofweg
336305678	15.4927889	47.0592166	Einödhofweg
336305683	15.4954809	47.0614000	Petri Au
336334000	15.4624460	47.0366511	Messendorfer Straße
336334004	15.4622018	47.0367460	Messendorfer Straße
336334011	15.4617051	47.0376549	Casalgasse
336334015	15.4618260	47.0376722	Casalgasse
336334018	15.4642056	47.0326123	Schule Engelsdorf
336334022	15.4645335	47.0325668	Schule Engelsdorf
336334027	15.4670580	47.0268937	Engelsdorfer Straße
336334033	15.4670260	47.0273640	Engelsdorfer Straße
337497333	15.4031336	47.0960858	Exerzierplatzstraße
364340449	15.4466295	47.0665928	Dietrichsteinplatz
364340452	15.4472333	47.0664764	Dietrichsteinplatz
364719028	15.4140893	47.0729644	Daungasse/Wasserturm
364719031	15.4142067	47.0729779	Daungasse/Wasserturm
364719037	15.4125421	47.0766672	Starhemberggasse
364719040	15.4127059	47.0767010	Starhemberggasse
364719043	15.4110619	47.0784850	Dreierschützengasse/Helmut-List-Halle
364719044	15.4108167	47.0785013	Dreierschützengasse/Helmut-List-Halle
373103063	15.4534875	47.0477116	Stadion Liebenau
373103068	15.4542917	47.0472526	Stadion Liebenau
373103070	15.4584222	47.0471832	Dr.-Lister-Gasse
373103071	15.4592260	47.0468426	Dr.-Lister-Gasse
373103072	15.4638672	47.0432884	Karl-Huber-Gasse
373108515	15.4397270	47.0639608	Grazbachgasse
373108517	15.4556321	47.0482100	Münzgrabenstraße/Stadion
387225175	15.4703657	47.0844577	Aspasiagasse
387225248	15.4698144	47.0838445	Aspasiagasse
387225263	15.4720603	47.0851796	Roßmanngasse
387225297	15.4723406	47.0854502	Roßmanngasse
387225601	15.4691309	47.0831098	Billrothgasse
387225662	15.4689662	47.0831162	Billrothgasse
387226090	15.4222452	47.0498551	Payer-Weyprecht-Straße
442064178	15.5129951	47.1051310	Stifting
442064186	15.5119979	47.1021846	Schmied König
442064196	15.5119381	47.1020366	Schmied König
449216107	15.3718714	47.0878022	Thalwinkel
474361252	15.4676939	47.0793506	St. Leonhard/LKH
542479643	15.4422128	47.0675029	Jakominiplatz
603981066	15.4580210	47.0794294	Lenaugasse
637684827	15.4372102	47.0213632	Mondo
652453405	15.4796043	47.0362862	Maggstraße
652453406	15.4848605	47.0336584	Prinzhoferweg
652453408	15.4810173	47.0412327	Styriastraße
652453417	15.4741003	47.0435808	Novalisgasse
652453419	15.4776016	47.0447603	Schmiedlstraße
702721510	15.3898949	47.1102078	Weinzödlkapelle
702721751	15.3861173	47.1104326	Schmiedwirt
705399517	15.4494328	47.0284144	Gewerbepark Rudersdorf XAL
705399518	15.4455988	47.0271416	Gasometerweg
705399519	15.4417080	47.0279764	Im Erlengrund
705399521	15.4415866	47.0259172	Auer-Welsbach-Gasse
707416601	15.4275131	47.0904802	Robert-Stolz-Gasse
707416606	15.4274492	47.0903775	Robert-Stolz-Gasse
712338683	15.4007604	47.0303941	Weblinger Straße
712557690	15.4264026	47.0515285	Vinzenz-Muchitsch-Straße
720866159	15.4350476	47.0245854	Mälzerweg
720866171	15.4314910	47.0235910	Gradnerstraße
720866183	15.4308508	47.0232392	Gradnerstraße
720866192	15.4310631	47.0240095	Gradnerstraße
720866210	15.4302460	47.0235080	Gradnerstraße
720866235	15.4354665	47.0248855	Mälzerweg
727285317	15.4953034	47.0939008	Otto-Möbes-Akademie
727285318	15.4742690	47.0873170	Hahnhofweg
727285321	15.4864104	47.0906248	Rieshang
727285325	15.5076544	47.0995507	Rohrbachfeld
727285330	15.4838612	47.0894682	Vorauer Kapelle
727285335	15.4898890	47.0924678	Posthof
727285337	15.5046844	47.0973099	Meichenitschbrücke
727285339	15.4739600	47.0871950	Hahnhofweg
727285343	15.4859976	47.0902203	Rieshang
727285344	15.4997382	47.0957993	Brodtrager
727285350	15.5000600	47.0958100	Brodtrager
727285353	15.4805345	47.0886410	Kollonitschstraße
727285354	15.4951919	47.0939804	Otto-Möbes-Akademie
727285355	15.4799240	47.0886730	Kollonitschstraße
727285356	15.5075473	47.0995987	Rohrbachfeld
727285362	15.4843140	47.0896669	Vorauer Kapelle
727285364	15.4895445	47.0921920	Posthof
727285368	15.5045783	47.0974677	Meichenitschbrücke
727287936	15.4642425	47.0784836	Odilien-Institut
727805729	15.4731041	47.0788220	Berthold-Linder-Weg
727806237	15.4738034	47.0788454	Berthold-Linder-Weg
727806974	15.4780415	47.0785781	Sartorigasse
727807365	15.4801367	47.0786973	Mosconweg
727807486	15.4822990	47.0786017	Peballweg
727807854	15.4852600	47.0782240	Rauchleitenstraße
727807901	15.4855182	47.0780925	Rauchleitenstraße
727808120	15.4884681	47.0780635	Macherstraße/Ragnitzbad
727808150	15.4884436	47.0779520	Macherstraße/Ragnitzbad
727808676	15.4950528	47.0769933	Berliner Ring-West
727808865	15.4949400	47.0771620	Berliner Ring-West
727808994	15.4974335	47.0768015	Berliner Ring
727809152	15.5011490	47.0757579	Landwirtschaftsschule
727811298	15.5001738	47.0760728	Landwirtschaftsschule
728306174	15.4973438	47.0769568	Berliner Ring
728903866	15.4637944	47.0778408	Odilien-Institut
728903873	15.4632270	47.0796050	Leonhardplatz
728903875	15.4642850	47.0784643	Odilien-Institut
728903896	15.4643666	47.0791883	Leonhardplatz
729739850	15.4443425	47.0185125	Rudersdorfer-Au-Straße
729739852	15.4436982	47.0201861	Mitterlingweg
729739855	15.4428772	47.0222829	Auwiesenweg
730535599	15.4580377	47.0764843	Tegetthoffplatz
730535603	15.4577818	47.0768434	Tegetthoffplatz
732107538	15.4296173	47.0873665	Carnerigasse
732107556	15.4232817	47.0937563	Maut Andritz
732107615	15.4230270	47.0939839	Maut Andritz
734982953	15.4586301	47.0615233	St. Peter Friedhof
734982955	15.4541092	47.0651961	Sacre Coeur/Petersgasse
734982956	15.4479519	47.0664573	Dietrichsteinplatz
734982958	15.4487847	47.0668170	Dietrichsteinplatz
734982960	15.4521880	47.0595284	Moserhofgasse
734982961	15.4463972	47.0669245	Dietrichsteinplatz
737986235	15.4535164	47.0563585	Hasenheide
737995211	15.4010673	47.0674674	Karl-Morre-Straße
737995212	15.4008341	47.0684895	Karl-Morre-Straße
737995214	15.4010032	47.0684168	Karl-Morre-Straße
737995217	15.4009832	47.0683754	Karl-Morre-Straße
738867382	15.4317390	47.0301800	Brauhaus Puntigam
740726455	15.4265354	47.1155159	Mexikoweg
740731001	15.4308465	47.1178535	Abzweigung Schöckelstraße
741150974	15.4286308	47.1246949	Zösenbergweg
741151222	15.4290224	47.1191318	Abzweigung Ursprungweg
741151232	15.4291127	47.1191321	Abzweigung Ursprungweg
741158203	15.4599874	47.0905839	Kroisbach Postamt
741158209	15.4600044	47.0834855	Hilmteich/Botanischer Garten
741158212	15.4601569	47.0835343	Hilmteich/Botanischer Garten
741158215	15.4597673	47.0906135	Kroisbach Postamt
747152243	15.4460924	47.0686919	Kaiser-Josef-Platz/Oper
747152249	15.4422295	47.0671857	Jakominiplatz
747152256	15.4418626	47.0672460	Jakominiplatz
747152266	15.4458767	47.0684772	Kaiser-Josef-Platz/Oper
747169478	15.4320915	47.0573546	Karlauergürtel
747169481	15.4318094	47.0569280	Karlauergürtel
747169494	15.4481427	47.0709229	Maiffredygasse
747169496	15.4479500	47.0707959	Maiffredygasse
747169500	15.4317602	47.0569259	Karlauergürtel
747169503	15.4214724	47.0497281	Payer-Weyprecht-Straße
747761871	15.4557986	47.0482470	Münzgrabenstraße/Stadion
747761872	15.4534723	47.0567435	Hasenheide
747860822	15.4410928	47.0583321	Josefkirche
747860823	15.4378198	47.0579524	Neuholdaugasse/Augartenbad
747860842	15.4403078	47.0583146	Josefkirche
747860845	15.4378040	47.0580184	Neuholdaugasse/Augartenbad
748145163	15.4344950	47.0482611	Fernheizwerk
748145168	15.4345239	47.0487626	Fernheizwerk
748145170	15.4328941	47.0521871	Puchstraße
748145172	15.4328215	47.0525555	Puchstraße
749847259	15.4476279	47.0737156	Glacis
749847264	15.4466116	47.0734725	Glacis
749847272	15.4891977	47.1070215	Mariatrost Postamt
749852269	15.4344767	47.0687389	Hotel Weitzer
753021976	15.5040705	47.0692176	Savenauweg
753021981	15.4926177	47.0704439	Moelkweg
753021984	15.4819902	47.0671249	Sonnenhang
753021987	15.4674145	47.0665814	Volksschule Waltendorf
753021990	15.4676692	47.0667389	Volksschule Waltendorf
753021993	15.4892861	47.0698086	Peterstalstraße
753021996	15.4970132	47.0702206	Schloss Lustbühel
753021998	15.4860548	47.0692437	Kaiserwirt
753022001	15.4700323	47.0667460	Kapelle
754168300	15.4586460	47.0692128	Schillerplatz
754168328	15.4589732	47.0692246	Schillerplatz
760340303	15.4022131	47.0468485	Karl-Etzel-Weg
760340331	15.4168062	47.0546914	Don Bosco-Süd
760398947	15.4027925	47.0705481	Franz-Steiner-Gasse
760398967	15.4019401	47.0703444	Franz-Steiner-Gasse
760398986	15.4020009	47.0703315	Franz-Steiner-Gasse
760652697	15.4293526	47.0464154	Zentralfriedhof
761126447	15.4138658	47.0432402	Kapellenwirt
762199239	15.3949710	47.1002817	Gösting
762199361	15.4300677	47.0757597	Lendplatz
762199517	15.4284665	47.0710754	Roseggerhaus
764078123	15.4345029	47.0773289	Keplerbrücke
764078142	15.4345894	47.0773819	Keplerbrücke
764078246	15.4598100	47.0896450	Mariagrün
764078259	15.4597480	47.0894460	Mariagrün
764078272	15.4604945	47.0895922	Mariagrün
764078280	15.4603046	47.0896038	Mariagrün
765293988	15.4549632	47.0738422	Merangasse
765293997	15.4539118	47.0733040	Merangasse
765294005	15.4539430	47.0732651	Merangasse
765294009	15.4549362	47.0738845	Merangasse
765316643	15.4315831	47.0313669	Brauhaus Puntigam
765316656	15.3927044	47.0606421	Wetzelsdorf
765316672	15.4192419	47.0333488	Center West
765890412	15.4636416	47.0602108	Schulzentrum St. Peter
765890418	15.4631603	47.0604599	Schulzentrum St. Peter
766486723	15.4287182	47.0303468	Puntigam Bahnhof
766486724	15.4284913	47.0303303	Puntigam Bahnhof
766486726	15.4283687	47.0303262	Puntigam Bahnhof
766486727	15.4282484	47.0303224	Puntigam Bahnhof
766486729	15.4281366	47.0303131	Puntigam Bahnhof
766486802	15.4287784	47.0303501	Puntigam Bahnhof
767381727	15.4985190	47.1113700	Mariatrost Föllinger Straße
767381728	15.4993195	47.1117019	Mariatrost Föllinger Straße
767381730	15.5025315	47.1130028	P+R Fölling
767932251	15.4487351	47.0540839	Ostbahnhof
767932252	15.4489595	47.0536353	Ostbahnhof
767932256	15.4486883	47.0540706	Ostbahnhof
772485786	15.4753548	47.0575764	Prof.-Franz-Spath-Ring
772485788	15.4465820	47.0665725	Dietrichsteinplatz
772485789	15.4244219	47.0712522	Esperantoplatz/Arbeiterkammer
772485790	15.4340557	47.0709231	Südtiroler Platz/Kunsthaus
772485791	15.4470491	47.0661601	Dietrichsteinplatz
772485792	15.4527070	47.0593450	Moserhofgasse
772485794	15.4471899	47.0664425	Dietrichsteinplatz
772485797	15.4507996	47.0635424	Neue Technik
772485799	15.4472523	47.0665077	Dietrichsteinplatz
772485800	15.4586233	47.0612069	St. Peter Friedhof
772485802	15.4382128	47.0713414	Hauptplatz/Congress
772485803	15.4244247	47.0711967	Esperantoplatz/Arbeiterkammer
772485804	15.4525671	47.0593899	Moserhofgasse
772485805	15.4471234	47.0661825	Dietrichsteinplatz
772485806	15.4585065	47.0612571	St. Peter Friedhof
772485808	15.4463993	47.0663358	Dietrichsteinplatz
772485810	15.4342784	47.0708440	Südtiroler Platz/Kunsthaus
772485813	15.4242602	47.0713073	Esperantoplatz/Arbeiterkammer
772485821	15.4499193	47.0640122	Neue Technik
772485823	15.4752546	47.0578691	Prof.-Franz-Spath-Ring
772485825	15.4343905	47.0712295	Südtiroler Platz/Kunsthaus
772485829	15.4519130	47.0599000	Moserhofgasse
772485832	15.4383238	47.0711473	Hauptplatz/Congress
772485835	15.4499341	47.0640478	Neue Technik
772508335	15.4527824	47.0688738	Rechbauerstraße
772508336	15.4525116	47.0686846	Rechbauerstraße
772508337	15.4525575	47.0686544	Rechbauerstraße
772508338	15.4560571	47.0702223	Herz-Jesu-Kirche
772508339	15.4553260	47.0701273	Herz-Jesu-Kirche
772508340	15.4508196	47.0677496	Mandellstraße
772508341	15.4505711	47.0677244	Mandellstraße
772508342	15.4528280	47.0688507	Rechbauerstraße
772508343	15.4554015	47.0702116	Herz-Jesu-Kirche
772610752	15.3922484	47.0646973	Johann-Haiden-Straße
772610753	15.3936672	47.0775119	Alt-Eggenberg
772610754	15.4099965	47.0700926	Alte Poststraße
772610755	15.3921406	47.0684898	Baierdorf
772610756	15.4097006	47.0700880	Alte Poststraße
772610757	15.4146967	47.0713460	Waagner-Biro-Straße/PVA
772610758	15.4015711	47.0728925	Auster Sport- und Wellnessbad
772610760	15.3935988	47.0775420	Alt-Eggenberg
772610761	15.3993657	47.0796108	Göstinger Straße/UKH
772610762	15.3922833	47.0634003	Handelstraße
772610763	15.4012012	47.0730831	Auster Sport- und Wellnessbad
772610764	15.4096633	47.0701169	Alte Poststraße
772610765	15.3967829	47.0751752	Schloss Eggenberg
772610766	15.3965285	47.0790164	Eggenberg/UKH
772610767	15.3922490	47.0651163	Johann-Haiden-Straße
772610769	15.4048380	47.0729729	Vinzenzgasse
772610772	15.3920355	47.0684820	Baierdorf
772610773	15.4135085	47.0706216	Waagner-Biro-Straße/PVA
772610774	15.3935596	47.0775805	Alt-Eggenberg
772610776	15.3921924	47.0634042	Handelstraße
772610777	15.4044619	47.0729811	Vinzenzgasse
772610778	15.4017229	47.0730837	Auster Sport- und Wellnessbad
772610779	15.3958023	47.0690818	Absengerstraße
772610781	15.3923814	47.0630860	Handelstraße
772610782	15.3922172	47.0684783	Baierdorf
772610783	15.3921571	47.0651327	Johann-Haiden-Straße
772610784	15.4053403	47.0702346	Fachhochschule Joanneum
772610785	15.4143356	47.0706392	Waagner-Biro-Straße/PVA
772610786	15.4072309	47.0730010	Georgigasse
772610788	15.4044513	47.0729538	Vinzenzgasse
772610789	15.3967000	47.0751174	Schloss Eggenberg
772610790	15.4146351	47.0711924	Waagner-Biro-Straße/PVA
772610791	15.3964071	47.0691209	Absengerstraße
772610793	15.3996891	47.0792968	Göstinger Straße/UKH
772610794	15.3923245	47.0646971	Johann-Haiden-Straße
772610796	15.4077626	47.0729196	Georgigasse
772610797	15.4072620	47.0729506	Georgigasse
772610798	15.4048503	47.0730162	Vinzenzgasse
772610799	15.3922934	47.0630589	Handelstraße
772620809	15.4604866	47.0868976	Schönbrunngasse
772620810	15.4584087	47.0751722	Reiterkaserne
772620812	15.4582097	47.0752083	Reiterkaserne
772620813	15.4580168	47.0790324	Lenaugasse
772620814	15.4599791	47.0833073	Hilmteich/Botanischer Garten
772620815	15.4509394	47.0721744	Lichtenfelsgasse/Kunstuniversität
772620817	15.4605735	47.0868596	Schönbrunngasse
772620818	15.4509837	47.0722099	Lichtenfelsgasse/Kunstuniversität
772620819	15.4503750	47.0720479	Lichtenfelsgasse/Kunstuniversität
772620820	15.4599359	47.0833206	Hilmteich/Botanischer Garten
772620821	15.4579704	47.0794038	Lenaugasse
772620822	15.4605939	47.0864543	Schönbrunngasse
772629246	15.4884546	47.1062654	Mariatrost Postamt
772629250	15.4679235	47.0977190	St. Johann
772629253	15.4653723	47.0938398	Kroisbach
772629254	15.4890652	47.1052223	Mariatrost
772629261	15.4789527	47.0997829	Waldhof
772629271	15.4683807	47.0978571	St. Johann
773221847	15.4460983	47.0576465	Stadthalle
773221858	15.4364307	47.0725710	Schloßbergplatz/Murinsel
773221861	15.4431862	47.0632902	Finanzamt
773221876	15.4451936	47.0592755	Jakominigürtel/Messe
773221888	15.4469917	47.0559683	Fröhlichgasse/Messe
773221891	15.4329227	47.0803115	Lange Gasse
773221896	15.4441825	47.0614452	Steyrergasse
773221898	15.4464173	47.0574082	Stadthalle
773221904	15.4330743	47.0825554	Hasnerplatz/Pädagogische Hochschule
773221919	15.4362545	47.0728042	Schloßbergplatz/Murinsel
773221948	15.4510759	47.0509227	Jauerburggasse
773221953	15.4329291	47.0824762	Hasnerplatz/Pädagogische Hochschule
773221972	15.4364106	47.0725543	Schloßbergplatz/Murinsel
773221988	15.4510798	47.0507665	Jauerburggasse
773221994	15.4542862	47.0473274	Stadion Liebenau
773221999	15.4440984	47.0614156	Steyrergasse
773222009	15.4453356	47.0593378	Jakominigürtel/Messe
773222019	15.4330049	47.0825312	Hasnerplatz/Pädagogische Hochschule
773222041	15.4349247	47.0746567	Schloßbergbahn
773222049	15.4329742	47.0803326	Lange Gasse
773222054	15.4330217	47.0800673	Lange Gasse
773222063	15.4352510	47.0741143	Schloßbergbahn
773222067	15.4430661	47.0632661	Finanzamt
773222073	15.4472275	47.0559646	Fröhlichgasse/Messe
773531349	15.4300744	47.0373952	Maut Puntigam
773531350	15.4326124	47.0521815	Puchstraße
773531352	15.4330935	47.0491159	Dornschneidergasse
773531354	15.4330356	47.0491193	Dornschneidergasse
773531356	15.4330236	47.0464771	Lauzilgasse
773531357	15.4330170	47.0495379	Dornschneidergasse
773531359	15.4293261	47.0411369	Plachelhofstraße
773531362	15.4330732	47.0495360	Dornschneidergasse
773531363	15.4325417	47.0521775	Puchstraße
773531364	15.4295774	47.0413981	Plachelhofstraße
773531365	15.4321724	47.0459462	Lauzilgasse
773531367	15.4329703	47.0464714	Lauzilgasse
773531368	15.4326596	47.0522005	Puchstraße
773531369	15.4305285	47.0375325	Maut Puntigam
773928686	15.4344633	47.0265547	Berschenygasse
773928713	15.4313571	47.0309314	Brauhaus Puntigam
773928724	15.4747630	47.0566920	Prof.-Franz-Spath-Ring
773928743	15.4345139	47.0258993	Berschenygasse
773928783	15.4752862	47.0570962	Prof.-Franz-Spath-Ring
774492925	15.4650884	47.0407302	Liebenau Murpark
774560541	15.4802612	47.0346260	Center Ost
774560544	15.4805994	47.0346117	Center Ost
774560550	15.4776835	47.0447739	Schmiedlstraße
774560551	15.4850746	47.0335536	Prinzhoferweg
774560552	15.4738174	47.0433694	Novalisgasse
774560554	15.4796645	47.0362175	Maggstraße
774560555	15.4809492	47.0411133	Styriastraße
774820035	15.4363077	47.1016891	Ziegelstraße
774820045	15.4310020	47.0855805	Seniorenzentrum
788287748	15.4802289	47.0834555	Kienreichsiedlung
788287752	15.4808699	47.0836906	Kienreichsiedlung
795004367	15.4024026	47.0799656	Algersdorfer Straße
795004372	15.4057310	47.0798295	Blümelstraße
795004378	15.4049696	47.0798871	Blümelstraße
795004381	15.4025637	47.0799255	Algersdorfer Straße
795004384	15.4025407	47.0778585	Franz-Pratter-Straße
795004386	15.4026871	47.0794981	Algersdorfer Straße
795004389	15.4022930	47.0776561	Franz-Pratter-Straße
795004391	15.4065770	47.0779110	Hödlweg
795004393	15.4024335	47.0795079	Algersdorfer Straße
798764023	15.4605134	47.0537919	Händelstraße
798764031	15.4600280	47.0536927	Händelstraße
799461395	15.4877551	47.0731687	Edlingerweg
799461400	15.4918055	47.0721634	Mallitschweg
799461403	15.4649435	47.0718507	Polzergasse/Heim
799461426	15.4778900	47.0730733	Kaiserwaldweg
799461430	15.4937467	47.0727136	Rudolfstraße 205
799461432	15.4650195	47.0716598	Polzergasse/Heim
799461437	15.4876985	47.0731059	Edlingerweg
799461440	15.4633090	47.0730040	Polzergasse/Rudolfstraße
799461446	15.4819290	47.0733230	Lawuggerwirt
799461455	15.4621289	47.0702290	Nernstgasse
799461460	15.4976565	47.0737040	Prevenhueberweg
799461466	15.4620301	47.0701028	Nernstgasse
799461471	15.4701315	47.0736675	Franzenshöhe
799461476	15.4999014	47.0751428	Volksschule Berliner Ring
799461481	15.4755354	47.0736611	Landhaus Jöbstl
799461495	15.4630266	47.0731228	Polzergasse/Rudolfstraße
799461498	15.4998294	47.0751872	Volksschule Berliner Ring
799461500	15.4977299	47.0737770	Prevenhueberweg
799461503	15.4748950	47.0736435	Landhaus Jöbstl
799461506	15.4697270	47.0734210	Franzenshöhe
799461532	15.4660217	47.0733624	Ruckerhof
799461535	15.4777027	47.0731684	Kaiserwaldweg
799461540	15.4941156	47.0727566	Rudolfstraße 205
799461545	15.4659580	47.0733100	Ruckerhof
799461551	15.4820416	47.0732581	Lawuggerwirt
799461568	15.4918001	47.0721028	Mallitschweg
805661820	15.4751718	47.0559831	Thomas-Arbeiter-Gasse
805661824	15.4751183	47.0561907	Thomas-Arbeiter-Gasse
805670334	15.4816163	47.0563223	Grüner Baum
805670346	15.4813510	47.0562830	Grüner Baum
817528276	15.4211491	47.0768327	Kleiststraße
817528279	15.4222411	47.0789014	Schrödingerstraße
817528281	15.4212673	47.0765232	Kleiststraße
817528284	15.4216795	47.0788746	Schrödingerstraße
869892490	15.4012158	47.0731137	Auster Sport- und Wellnessbad
906718324	15.5013454	47.1125078	P+R Fölling
910736339	15.4432165	47.0672618	Jakominiplatz
950636215	15.4448177	47.0182687	Rudersdorfer-Au-Straße
960593918	15.5010471	47.0573674	Petersbergenstraße 144
960593923	15.4924664	47.0532519	Messendorfberg
960593943	15.4841870	47.0532580	Diözesanwald
960593952	15.4990137	47.0559039	Schloss Reintal
960593955	15.5044090	47.0623090	Petersbergenstraße 194
960593972	15.4835983	47.0537894	Diözesanwald
960593988	15.4954051	47.0545658	Pachernweg
960597327	15.5023386	47.0695242	Savenauweg
960597330	15.4973837	47.0702164	Schloss Lustbühel
960600197	15.4811007	47.0669539	Sonnenhang
960600198	15.4863472	47.0694916	Kaiserwirt
960600201	15.4887001	47.0698554	Peterstalstraße
960600202	15.4702011	47.0669286	Kapelle
960600204	15.4925705	47.0705562	Moelkweg
963282003	15.4383476	47.0711742	Hauptplatz/Congress
968913041	15.4348722	47.0746479	Schloßbergbahn
992768853	15.4278101	47.0545123	Feldgasse
995084645	15.4682710	47.0842262	LKH/Kinderklinik
995084660	15.4672740	47.0825275	Nerven-Süd
995084663	15.4682301	47.0830443	LKH/HNO-Klinik
995084670	15.4628735	47.0810675	LKH/Haupteinfahrt
995084679	15.4685312	47.0861486	LKH/Landesinternat
995084705	15.4646173	47.0805275	LKH/Chirurgie Rampe
995084724	15.4660401	47.0806510	LKH/Hauptallee
995084745	15.4664307	47.0859014	LKH/Psychiatrie
995084746	15.4676426	47.0816160	LKH/Vorplatz Brückenturm
995084762	15.4672798	47.0800231	LKH/Eingangszentrum
995084768	15.4723268	47.0913737	LKH/Biomedizinische Forschung
1020214673	15.4187027	47.1139789	Im Hoffeld
1020214741	15.4230027	47.1138142	Oberandritz
1020214777	15.4079855	47.1122503	St. Gotthard
1020214889	15.4082289	47.1131447	St. Gotthard
1020215189	15.4221736	47.1078699	Prochaskagasse
1020215544	15.4129940	47.1140441	St. Veit
1020215695	15.4230940	47.1136723	Oberandritz
1020216051	15.4127054	47.1138374	St. Veit
1020216238	15.4187161	47.1138996	Im Hoffeld
1020216940	15.4173740	47.1081030	Pedrettogasse
1020217048	15.4176304	47.1074613	Pedrettogasse
1020217545	15.4206220	47.1061680	Maschinenfabrik Andritz
1020217631	15.4132440	47.1104219	Villa Sonnblick
1020218402	15.4134870	47.1102163	Villa Sonnblick
1020218487	15.4247249	47.1247477	Scherwirt
1020218565	15.4211505	47.1173865	Rielteich
1020218661	15.4228504	47.1191400	Forstweg
1020218717	15.4248792	47.1246979	Scherwirt
1020218758	15.4213339	47.1173721	Rielteich
1020218891	15.4230965	47.1192297	Forstweg
1020219000	15.4208594	47.1058924	Maschinenfabrik Andritz
1022706038	15.4039430	47.0812085	Peter-Tunner-Gasse
1022706049	15.3967320	47.0794930	Eggenberg/UKH
1022706153	15.3959539	47.0959922	Annakirche
1022706159	15.4035255	47.0844871	Anton-Gerstl-Straße
1022706163	15.4032409	47.0847205	Anton-Gerstl-Straße
1022706164	15.3944685	47.1004097	Gösting
1022706191	15.3948966	47.0968911	Annakirche
1022706221	15.4112028	47.0727444	Laudongasse
1022706234	15.4007015	47.0888652	Saitzgasse
1022706247	15.4026130	47.0903260	Saitzgasse
1022706374	15.4009341	47.0925013	Negrelligasse
1022706428	15.3974075	47.0916003	Negrelligasse
1022706432	15.3963836	47.0792126	Eggenberg/UKH
1022706448	15.4024709	47.0870132	Steinbruchweg
1022706452	15.4038853	47.0813130	Peter-Tunner-Gasse
1022706478	15.4035719	47.0884544	Steinbruchweg
1022862917	15.4014022	47.0749765	Lerchengasse
1022863060	15.4219190	47.0865598	Kalvarienbrücke
1022863141	15.4087632	47.0823641	Resselgasse
1022863228	15.4014517	47.0745905	Lerchengasse
1022863304	15.4227929	47.0866131	Kalvarienbrücke
1022863487	15.4099001	47.0825200	Resselgasse
1026592785	15.4186779	47.0209906	Industriepark/Gradnerstraße
1026592808	15.4008791	47.0221132	Gradnerstraße/Straßgang
1026592848	15.4153992	47.0204277	Spitzäckerweg
1026592859	15.3971682	47.0612667	Tyroltgasse
1026592884	15.4045719	47.0218257	Straßgang Bahnhof
1026592917	15.4246899	47.0223722	Am Leopoldsgrund
1026592968	15.4119841	47.0206863	Karlsbader Gasse
1026593005	15.4191085	47.0209176	Industriepark/Gradnerstraße
1026593027	15.4113716	47.0206521	Karlsbader Gasse
1026593034	15.4269627	47.0227281	Schule Puntigam
1026593147	15.4004977	47.0647013	Bauernfeldstraße
1026593158	15.4009895	47.0222254	Gradnerstraße/Straßgang
1026593193	15.3967648	47.0611686	Tyroltgasse
1026593231	15.4274332	47.0229014	Schule Puntigam
1026593328	15.4081700	47.0213379	Kudlichweg
1026593394	15.4049108	47.0217191	Straßgang Bahnhof
1026593453	15.4007171	47.0650503	Bauernfeldstraße
1026593505	15.4251709	47.0224112	Am Leopoldsgrund
1026593522	15.4086598	47.0213096	Kudlichweg
1026593578	15.4149294	47.0205071	Spitzäckerweg
1027914407	15.4315697	47.0265526	Hafnerstraße
1027914442	15.4307814	47.0207468	Passinigasse
1027914456	15.4309310	47.0210120	Passinigasse
1027914484	15.4317081	47.0257170	Hafnerstraße
1028146576	15.4269829	47.1158279	Mexikoweg
1028147541	15.4307695	47.1178975	Abzweigung Schöckelstraße
1041797710	15.4836336	47.1029047	Teichhof
1041797771	15.4757927	47.0996052	Wagnesweg
1041797910	15.4641575	47.0946961	Kroisbach
1041797924	15.4730210	47.0988875	Rettenbach
1041798358	15.4654040	47.0954980	Kroisbach
1041798378	15.4783256	47.1003730	Waldhof
1041798398	15.4858832	47.1036217	Tannhof
1041798544	15.4733601	47.0990606	Rettenbach
1041798614	15.4757710	47.0996954	Wagnesweg
1041798670	15.4784008	47.1002895	Waldhof
1041798719	15.4860170	47.1038480	Tannhof
1041798739	15.4840994	47.1029813	Teichhof
1052226021	15.4579289	47.0434056	Eisstadion
1052226228	15.4577799	47.0433810	Eisstadion
1067360077	15.3720087	47.0875426	Thalwinkel
1067360100	15.3795317	47.0996781	Hinterbrühl
1067360113	15.3746202	47.0958715	Grabenbauer
1067360137	15.3750939	47.0961402	Grabenbauer
1067360174	15.3832123	47.1014104	Thalstraße/Reihenhaussiedlung
1067360176	15.3805015	47.1004319	Hinterbrühl
1067360182	15.3831435	47.1014738	Thalstraße/Reihenhaussiedlung
1067360189	15.3878647	47.1015724	Floraquellweg
1067360207	15.3884474	47.1014970	Floraquellweg
1069189678	15.5009674	47.0573955	Petersbergenstraße 144
1069189789	15.4956250	47.0546819	Pachernweg
1069189793	15.4473922	47.0164958	Mühlweg
1069189804	15.5043160	47.0623350	Petersbergenstraße 194
1069189831	15.4429105	47.0225088	Auwiesenweg
1069189853	15.4437926	47.0201853	Mitterlingweg
1069189867	15.4925242	47.0534800	Messendorfberg
1069189945	15.4414900	47.0259350	Auer-Welsbach-Gasse
1069189966	15.4416110	47.0281580	Im Erlengrund
1069189979	15.4455783	47.0270361	Gasometerweg
1069189984	15.4991050	47.0560317	Schloss Reintal
1091430648	15.4193519	47.0709600	Annenstraße/Eggenberger Gürtel
1091430690	15.4196435	47.0709758	Annenstraße/Eggenberger Gürtel
1115621934	15.4313272	47.0655779	Griesplatz
1115622001	15.4394360	47.0386110	Fasanturmweg
1115622008	15.4415026	47.0552514	Hüttenbrennergasse
1115622057	15.4362146	47.0459148	Sturzgasse
1115622110	15.4406132	47.0343424	Firma Capo
1115622238	15.4404941	47.0343267	Firma Capo
1115622254	15.4486798	47.0444801	Hauptschule Dr. Renner
1115622318	15.4361393	47.0458690	Sturzgasse
1115622346	15.4393870	47.0383860	Fasanturmweg
1143942196	15.4422442	47.1246515	Dürrgrabenweg
1168588079	15.4154237	47.0827522	Kalvariengürtel
1209128147	15.4017389	47.0730479	Auster Sport- und Wellnessbad
1217713848	15.4349750	47.1190820	Neustift
1251189938	15.4068220	47.0777556	Hödlweg
1251540799	15.4568139	47.0923205	Wildweg
1251771047	15.4452688	47.0595475	Jakominigürtel/Messe
1251827221	15.4378123	47.0579762	Neuholdaugasse/Augartenbad
1251827273	15.4410850	47.0583534	Josefkirche
1252315681	15.4424730	47.0673852	Jakominiplatz
1253826944	15.4479892	47.0707793	Maiffredygasse
1255801762	15.5082978	47.1273346	Josefhof
1258837006	15.4198050	47.0588215	Don Bosco Bahnhof
1260655611	15.4143154	47.0706699	Waagner-Biro-Straße/PVA
1260655612	15.4135724	47.0705728	Waagner-Biro-Straße/PVA
1260865420	15.4279111	47.0872488	Carnerigasse-West
1260865427	15.4542029	47.0767846	Geidorfgürtel
1296561496	15.5243372	47.0969640	Kainbach Pflegezentrum
1342342889	15.4060773	47.0700769	Fachhochschule Joanneum
1426016071	15.4941160	47.1093238	Mariatrost Tullriegel
1426016075	15.4941195	47.1094081	Mariatrost Tullriegel
1487738859	15.5046478	47.1196477	Langeggerweg
1487738866	15.5081263	47.1267202	Josefhof
1491438544	15.4709158	47.0187931	Thondorf
1575526515	15.4053461	47.0701862	Fachhochschule Joanneum
1583557114	15.4679114	47.0251877	Leberackerweg
1583557115	15.4680366	47.0252121	Leberackerweg
1618984231	15.4932121	47.0355563	Kreisverkehr
1621341020	15.4179423	47.0728349	Hauptbahnhof
1630393442	15.4359459	47.0686914	Andreas-Hofer-Platz/Joanneumsviertel
1630393446	15.4365311	47.0688553	Andreas-Hofer-Platz/Joanneumsviertel
1630393448	15.4360067	47.0689158	Andreas-Hofer-Platz/Joanneumsviertel
1630393449	15.4362466	47.0689459	Andreas-Hofer-Platz/Joanneumsviertel
1630393452	15.4364438	47.0689706	Andreas-Hofer-Platz/Joanneumsviertel
1630393466	15.4169009	47.0734983	Hauptbahnhof
1630393475	15.4168201	47.0737077	Hauptbahnhof
1630393476	15.4168639	47.0739244	Hauptbahnhof
1630393487	15.4167470	47.0738971	Hauptbahnhof
1630393490	15.4305922	47.0752969	Lendplatz
1630393502	15.4304087	47.0754629	Lendplatz
1630393503	15.4302277	47.0756102	Lendplatz
1630393552	15.3898436	47.1100772	Weinzödlkapelle
1636602291	15.3861280	47.1103317	Schmiedwirt
1640803376	15.4156974	47.1018602	Wasserwerkgasse
1640803379	15.4155156	47.1017901	Wasserwerkgasse
1641590969	15.4012924	47.1044824	Shopping-Nord
1652609094	15.4538099	47.0655494	Sacre Coeur/Petersgasse
1676059399	15.3735056	47.0551367	Wetzelsdorf Gasthaus Dorrer
1676059400	15.3741623	47.0554322	Wetzelsdorf Gasthaus Dorrer
1708220120	15.5040964	47.1193698	Langeggerweg
1725651134	15.4380557	47.0204799	Mondo
1768702438	15.4422335	47.1248562	Dürrgrabenweg
1770415061	15.5318732	47.0989196	Kainbach Karl-Schubert-Schule
1793170908	15.4520181	47.0910092	August-Musger-Gasse
1793178190	15.4566981	47.0876624	Pensionsweg
1793178209	15.4461993	47.0956278	Quellengasse/Rose
1804195969	15.3684813	47.0511442	Wetzelsdorf Semlitsch
1804195981	15.3624272	47.0499109	Wetzelsdorf Waldhof Abzweigung Mantscha
1804195990	15.3627342	47.0499754	Wetzelsdorf Waldhof Abzweigung Mantscha
1812487093	15.4872330	47.0845400	Kaufhaus Lachmann
1812487097	15.4874396	47.0847547	Kaufhaus Lachmann
1812487281	15.5111878	47.0911189	Rasthaus Edelweiß
1812487299	15.5001816	47.0897610	Sternwirtweg
1812487304	15.5025763	47.0902579	Sternwirtweg
1864400707	15.4524161	47.1080959	Pfeifferhof
1864400801	15.4389247	47.1021696	Rainleiten
1864400807	15.4388844	47.1022323	Rainleiten
1864400834	15.4422919	47.1043296	Seminarstraße Mitte
1864400838	15.4422607	47.1043954	Seminarstraße Mitte
1864400839	15.4443767	47.1049415	Seminarstraße
1864400840	15.4316332	47.1008491	Viktor-Zack-Weg
1865777916	15.4538946	47.0950805	Hans-Friz-Weg
1865777935	15.4539684	47.0951033	Hans-Friz-Weg
1865777937	15.4566296	47.0928422	Wildweg
1865778039	15.4579729	47.0911127	Unterer Plattenweg
1865778044	15.4580200	47.0911737	Unterer Plattenweg
1902825443	15.4184781	47.0726085	Hauptbahnhof
1902825455	15.4175266	47.0728150	Hauptbahnhof
1902825464	15.4183580	47.0729686	Hauptbahnhof
1903813919	15.4169425	47.0737225	Hauptbahnhof
1915153639	15.4752819	47.0167991	Magna Tor 1
1915153645	15.4318094	47.0622180	Rankengasse 10
1938662543	15.4425026	47.0674104	Jakominiplatz
1938784853	15.4481062	47.0709338	Maiffredygasse
1939536728	15.4695733	47.0966435	St. Johann
1983068138	15.4487010	47.0668856	Dietrichsteinplatz
1987019531	15.4695610	47.0604226	Plüddemanngasse
1987045801	15.4644551	47.0603888	Schulzentrum St. Peter
1987107282	15.4242606	47.0712592	Esperantoplatz/Arbeiterkammer
1987107289	15.4340589	47.0708808	Südtiroler Platz/Kunsthaus
1987107327	15.4281856	47.0710887	Roseggerhaus
1987433325	15.4507822	47.0677818	Mandellstraße
1987495312	15.4589419	47.0691805	Schillerplatz
1987615143	15.4432324	47.0633004	Finanzamt
1987615148	15.4442370	47.0614568	Steyrergasse
1987641170	15.4490039	47.0536452	Ostbahnhof
1987654559	15.4511261	47.0507842	Jauerburggasse
1987680330	15.4625339	47.0423206	P+R Murpark
1988217308	15.4582051	47.0751288	Reiterkaserne
1988235730	15.4599549	47.0834807	Hilmteich/Botanischer Garten
1988243679	15.4603205	47.0895833	Mariagrün
1988243685	15.4605626	47.0864821	Schönbrunngasse
1988243689	15.4604796	47.0896152	Mariagrün
1988250122	15.4649460	47.0936320	Kroisbach
1988253507	15.4762344	47.0990235	Wagnesweg
1988256778	15.4842429	47.1014440	Teichhof
1988288670	15.4631457	47.0604049	Schulzentrum St. Peter
1988288673	15.4636647	47.0602524	Schulzentrum St. Peter
1988294569	15.4687492	47.0602036	Plüddemanngasse
1988305271	15.4747753	47.0596511	Breitenweg
1988305290	15.4724138	47.0615718	Eisteichgasse
1988305299	15.4746479	47.0598430	Breitenweg
1988313813	15.4805427	47.0586242	St. Peter
1988313818	15.4754018	47.0575974	Prof.-Franz-Spath-Ring
1988313821	15.4752081	47.0578479	Prof.-Franz-Spath-Ring
1988326852	15.4453776	47.0593513	Jakominigürtel/Messe
1988330100	15.4472828	47.0559744	Fröhlichgasse/Messe
1988369110	15.4381618	47.0712937	Hauptplatz/Congress
1988392666	15.4112521	47.0727504	Laudongasse
1988450222	15.4294730	47.0875739	Carnerigasse
1988450227	15.4295106	47.0875867	Carnerigasse
1988686026	15.4330771	47.0800845	Lange Gasse
1988699356	15.4353022	47.0741354	Schloßbergbahn
1988725446	15.4314025	47.0848247	Seniorenzentrum
1988746231	15.4211206	47.0990633	Grazer Straße
1988746235	15.4211428	47.0992411	Grazer Straße
1988870118	15.4099864	47.0701241	Alte Poststraße
1988890585	15.4008225	47.0684446	Karl-Morre-Straße
1988965848	15.4077310	47.0729624	Georgigasse
1989353321	15.4378056	47.0580069	Neuholdaugasse/Augartenbad
1989353323	15.4402880	47.0582925	Josefkirche
1989364745	15.4321744	47.0459199	Lauzilgasse
1989393784	15.4318024	47.0311384	Brauhaus Puntigam
1989399524	15.4306002	47.0376106	Maut Puntigam
1989402357	15.4300267	47.0454149	Zentralfriedhof
1989413179	15.4320954	47.0573351	Karlauergürtel
2003690241	15.4506750	47.0764548	Uni/Mensa
2018522771	15.4617326	47.0646813	Koßgasse
2018522773	15.4616507	47.0647683	Koßgasse
2018522774	15.4546331	47.0730705	Merangasse
2018522779	15.4627487	47.0665061	Schörgelgasse
2018522781	15.4582974	47.0618592	St. Peter Friedhof
2018522782	15.4582353	47.0632595	Waltendorfer Gürtel
2018522783	15.4581512	47.0633587	Waltendorfer Gürtel
2027975405	15.4526709	47.0673673	Felix-Dahn-Platz
2027975407	15.4548694	47.0684761	Katzianergasse
2031511647	15.4184879	47.0718207	Hauptbahnhof
2031511649	15.4185656	47.0718479	Hauptbahnhof
2031511650	15.4186544	47.0718780	Hauptbahnhof
2039919002	15.4636003	47.0777174	Odilien-Institut
2039919006	15.4579334	47.0750641	Reiterkaserne
2078703843	15.4112858	47.0727523	Laudongasse
2078703844	15.4113261	47.0727566	Laudongasse
2083038837	15.4844042	47.0332268	Tiefentalweg
2088371771	15.4316064	47.0653725	Griesplatz
2088371772	15.4316719	47.0657916	Griesplatz
2088371773	15.4316737	47.0658865	Griesplatz
2088371774	15.4316968	47.0659885	Griesplatz
2088371775	15.4317073	47.0660478	Griesplatz
2154663479	15.4375959	47.0892951	Zusertalgasse
2154663480	15.4377233	47.0893459	Zusertalgasse
2302938533	15.5039107	47.1169271	Fölling Sportplatz
2302938535	15.5038885	47.1172339	Fölling Sportplatz
2401290319	15.4501735	47.0696735	Alte Technik
2418834634	15.4224535	47.1081332	Prochaskagasse
2435038353	15.3616495	47.0499707	Wetzelsdorf Waldhof Abzweigung Mantscha
2581187945	15.4220744	47.0215772	Wohnpark Gradnerstraße
2581187946	15.4220105	47.0216478	Wohnpark Gradnerstraße
2635112931	15.4683303	47.0978361	St. Johann
2635112932	15.4678534	47.0976705	St. Johann
2639529468	15.4679877	47.0793942	St. Leonhard/LKH
2639550940	15.4112054	47.0702769	Alte Poststraße Remise
2639581389	15.4012642	47.0676837	Karl-Morre-Straße
2639595988	15.4293130	47.0871464	Carnerigasse
2639636681	15.4440750	47.0610450	Steyrergasse Remise
2639636683	15.4440424	47.0610907	Steyrergasse Remise
2640738479	15.4598049	47.0683613	Krenngasse
2640848376	15.4643224	47.0602297	Schulzentrum St. Peter
2640848377	15.4641313	47.0602464	Schulzentrum St. Peter
2641788752	15.4198690	47.0588532	Don Bosco Bahnhof
2641788753	15.4315764	47.0652843	Griesplatz
2641832722	15.3965187	47.0381912	Ankerstraße
2641832729	15.4011941	47.0293653	Webling
2641851077	15.4108140	47.0357660	P+R Webling
2641851086	15.4010760	47.0215550	Volksschule Straßgang
2641851087	15.4011950	47.0215560	Volksschule Straßgang
2643692976	15.4393590	47.0964323	Saumgasse
2643692981	15.4394892	47.0963485	Saumgasse
2643732340	15.4175645	47.1222014	Forstweg oben
2643732341	15.4174495	47.1222169	Forstweg oben
2643732342	15.4189356	47.1239683	Hügelweg
2643732343	15.4188598	47.1239750	Hügelweg
2643732344	15.4349769	47.1243021	Kneippweg
2643732345	15.4351742	47.1243406	Kneippweg
2643732346	15.4118000	47.1188340	Kortschakweg
2643732347	15.4116940	47.1188420	Kortschakweg
2643732348	15.4236310	47.1135590	Oberandritz
2643732349	15.4240840	47.1140300	Oberandritz
2643732364	15.4374344	47.1276380	Schöckelstraße 106
2643732365	15.4373600	47.1276550	Schöckelstraße 106
2643732366	15.4319623	47.1213525	Schöckelstraße 48
2643732367	15.4318826	47.1213633	Schöckelstraße 48
2643732368	15.4121530	47.1151940	Volksschule St. Veit
2643732369	15.4212020	47.1261150	Winterweg
2643732370	15.4210960	47.1261500	Winterweg
2643968792	15.4154727	47.0800644	Lastenstraße
2643968800	15.4173288	47.0755921	Zollgasse
2645283287	15.4742676	47.0884709	LKH/Betriebsgärtnerei
2645464910	15.4815397	47.0565108	Grüner Baum
2684006537	15.4523418	47.0907397	August-Musger-Gasse
2684006542	15.4364172	47.0871489	Bundesasylamt
2684006547	15.4363285	47.0872014	Bundesasylamt
2684006551	15.4376434	47.0931788	Eschenbachgasse
2684006555	15.4375819	47.0932269	Eschenbachgasse
2684006559	15.4421874	47.0966077	Otto-Wagner-Weg
2684006563	15.4422553	47.0966355	Otto-Wagner-Weg
2684006567	15.4566519	47.0876178	Pensionsweg
2684006601	15.4463982	47.0953521	Quellengasse/Rose
2684006605	15.4483513	47.0988614	Stoffbauerweg
2684006608	15.4483532	47.0989692	Stoffbauerweg
2684006609	15.4545670	47.0887140	Ziernfeldgasse
2684006611	15.4544650	47.0887220	Ziernfeldgasse
2691157733	15.4025880	47.0924690	HTL Bulme (Schulgelände)
2692320713	15.4549498	47.0684100	Katzianergasse
2692333286	15.3884370	47.0556960	Krottendorfer Straße
2896939492	15.4300392	47.0746251	Volksgartenstraße
2896939493	15.4303152	47.0746766	Volksgartenstraße
